{
"type": "FeatureCollection",
"crs": { "type": "name", "properties": { "name": "urn:ogc:def:crs:OGC:1.3:CRS84" } },
                                                                                
"features": [
{ "type": "Feature", "properties": { "Name": "Xcape Bar & Lounge", "TipoDeServ": "Bar" }, "geometry": { "type": "Point", "coordinates": [ -84.05108, 9.933075 ] } },
{ "type": "Feature", "properties": { "Name": "Friday's", "TipoDeServ": "Sport Bar" }, "geometry": { "type": "Point", "coordinates": [ -84.054282, 9.938856 ] } },
{ "type": "Feature", "properties": { "Name": "Hooters", "TipoDeServ": "Sport Bar" }, "geometry": { "type": "Point", "coordinates": [ -84.054531, 9.937012 ] } },
{ "type": "Feature", "properties": { "Name": "Bar Roots", "TipoDeServ": "Bar" }, "geometry": { "type": "Point", "coordinates": [ -84.05814, 9.931066 ] } },
{ "type": "Feature", "properties": { "Name": "Vyrus", "TipoDeServ": "Bar" }, "geometry": { "type": "Point", "coordinates": [ -84.058377, 9.931022 ] } },
{ "type": "Feature", "properties": { "Name": "Taos", "TipoDeServ": "Bar" }, "geometry": { "type": "Point", "coordinates": [ -84.060022, 9.931515 ] } },
{ "type": "Feature", "properties": { "Name": "Rio", "TipoDeServ": "Bar" }, "geometry": { "type": "Point", "coordinates": [ -84.058989, 9.931984 ] } },
{ "type": "Feature", "properties": { "Name": "Catalunia", "TipoDeServ": "Hotel" }, "geometry": { "type": "Point", "coordinates": [ -84.051263, 9.933007 ] } },
{ "type": "Feature", "properties": { "Name": "Omar Khayyam", "TipoDeServ": "Restaurante" }, "geometry": { "type": "Point", "coordinates": [ -84.051126, 9.933764 ] } },
{ "type": "Feature", "properties": { "Name": "T++ The Bubble Tea Co.", "TipoDeServ": "Cafe" }, "geometry": { "type": "Point", "coordinates": [ -84.051079, 9.934349 ] } },
{ "type": "Feature", "properties": { "Name": "El Bambú", "TipoDeServ": "Hotel" }, "geometry": { "type": "Point", "coordinates": [ -84.05152, 9.934843 ] } },
{ "type": "Feature", "properties": { "Name": "Copas", "TipoDeServ": "Bar" }, "geometry": { "type": "Point", "coordinates": [ -84.05166, 9.933095 ] } },
{ "type": "Feature", "properties": { "Name": "Urbano", "TipoDeServ": "Hostel" }, "geometry": { "type": "Point", "coordinates": [ -84.052759, 9.93309 ] } },
{ "type": "Feature", "properties": { "Name": "Il Pommodoro", "TipoDeServ": "Restaurante" }, "geometry": { "type": "Point", "coordinates": [ -84.052012, 9.931048 ] } },
{ "type": "Feature", "properties": { "Name": "Il Pommodoro", "TipoDeServ": "Restaurante" }, "geometry": { "type": "Point", "coordinates": [ -84.052351713180542, 9.933164397640628 ] } },
{ "type": "Feature", "properties": { "Name": "Terra U", "TipoDeServ": "Bar" }, "geometry": { "type": "Point", "coordinates": [ -84.0509, 9.932799 ] } },
{ "type": "Feature", "properties": { "Name": "Jazz Cafe Club", "TipoDeServ": "Bar" }, "geometry": { "type": "Point", "coordinates": [ -84.04941, 9.932164 ] } },
{ "type": "Feature", "properties": { "Name": "Pizza Hut Delivery", "TipoDeServ": "Restaurante" }, "geometry": { "type": "Point", "coordinates": [ -84.049327, 9.931815 ] } },
{ "type": "Feature", "properties": { "Name": "Pane E Vino", "TipoDeServ": "Restaurante" }, "geometry": { "type": "Point", "coordinates": [ -84.047749, 9.931188 ] } },
{ "type": "Feature", "properties": { "Name": "RostiPollos", "TipoDeServ": "Restaurante" }, "geometry": { "type": "Point", "coordinates": [ -84.04855, 9.932743 ] } },
{ "type": "Feature", "properties": { "Name": "Castle Tam", "TipoDeServ": "Hostel" }, "geometry": { "type": "Point", "coordinates": [ -84.053757, 9.93092 ] } },
{ "type": "Feature", "properties": { "Name": "Casa Areka Costa Rica", "TipoDeServ": "Hostel" }, "geometry": { "type": "Point", "coordinates": [ -84.056724, 9.931463 ] } },
{ "type": "Feature", "properties": { "Name": "Sand", "TipoDeServ": "Bar" }, "geometry": { "type": "Point", "coordinates": [ -84.056889, 9.93177 ] } },
{ "type": "Feature", "properties": { "Name": "Antojitos Cancún", "TipoDeServ": "Restaurante" }, "geometry": { "type": "Point", "coordinates": [ -84.056557, 9.932414 ] } },
{ "type": "Feature", "properties": { "Name": "Burger King", "TipoDeServ": "Restaurante" }, "geometry": { "type": "Point", "coordinates": [ -84.056334, 9.932483 ] } },
{ "type": "Feature", "properties": { "Name": "Azafrán", "TipoDeServ": "Hostel" }, "geometry": { "type": "Point", "coordinates": [ -84.057247, 9.932308 ] } },
{ "type": "Feature", "properties": { "Name": "Veggie House", "TipoDeServ": "Resturante" }, "geometry": { "type": "Point", "coordinates": [ -84.057039, 9.932963 ] } },
{ "type": "Feature", "properties": { "Name": "Coni", "TipoDeServ": "Restaruante" }, "geometry": { "type": "Point", "coordinates": [ -84.056498, 9.933783 ] } },
{ "type": "Feature", "properties": { "Name": "Mrs. Fields", "TipoDeServ": "Cafe" }, "geometry": { "type": "Point", "coordinates": [ -84.05692, 9.934264 ] } },
{ "type": "Feature", "properties": { "Name": "Taco Bell", "TipoDeServ": "Restaurante" }, "geometry": { "type": "Point", "coordinates": [ -84.05552, 9.935227 ] } },
{ "type": "Feature", "properties": { "Name": "POPS", "TipoDeServ": "Heladeria" }, "geometry": { "type": "Point", "coordinates": [ -84.055022, 9.935981 ] } },
{ "type": "Feature", "properties": { "Name": "Mas Tequila", "TipoDeServ": "Sport Bar" }, "geometry": { "type": "Point", "coordinates": [ -84.05571, 9.938522 ] } },
{ "type": "Feature", "properties": { "Name": "Chichi´s", "TipoDeServ": "Restaurante" }, "geometry": { "type": "Point", "coordinates": [ -84.055828, 9.938432 ] } },
{ "type": "Feature", "properties": { "Name": "Chancay", "TipoDeServ": "Restaurante" }, "geometry": { "type": "Point", "coordinates": [ -84.05531, 9.938913 ] } },
{ "type": "Feature", "properties": { "Name": "Quiznos", "TipoDeServ": "Restaurante" }, "geometry": { "type": "Point", "coordinates": [ -84.055163, 9.938977 ] } },
{ "type": "Feature", "properties": { "Name": "Applebee's", "TipoDeServ": "Restaurante" }, "geometry": { "type": "Point", "coordinates": [ -84.055426, 9.939938 ] } },
{ "type": "Feature", "properties": { "Name": "Arrecifes", "TipoDeServ": "Restaurante" }, "geometry": { "type": "Point", "coordinates": [ -84.03202, 9.945198 ] } },
{ "type": "Feature", "properties": { "Name": "POPS", "TipoDeServ": "Heladeria" }, "geometry": { "type": "Point", "coordinates": [ -84.023373, 9.943674 ] } },
{ "type": "Feature", "properties": { "Name": "Legends", "TipoDeServ": "Bar" }, "geometry": { "type": "Point", "coordinates": [ -84.015895, 9.943066 ] } },
{ "type": "Feature", "properties": { "Name": "La Nena", "TipoDeServ": "Bar" }, "geometry": { "type": "Point", "coordinates": [ -84.04418, 9.930295 ] } },
{ "type": "Feature", "properties": { "Name": "Taos", "TipoDeServ": "Bar" }, "geometry": { "type": "Point", "coordinates": [ -84.060022, 9.931515 ] } },
{ "type": "Feature", "properties": { "Name": "Bufalos", "TipoDeServ": "Bar" }, "geometry": { "type": "Point", "coordinates": [ -84.052439, 9.933247 ] } },
{ "type": "Feature", "properties": { "Name": "Caccio's", "TipoDeServ": "Bar" }, "geometry": { "type": "Point", "coordinates": [ -84.05122, 9.933002 ] } },
{ "type": "Feature", "properties": { "Name": "Fitos", "TipoDeServ": "Bar" }, "geometry": { "type": "Point", "coordinates": [ -84.05217, 9.93388 ] } },
{ "type": "Feature", "properties": { "Name": "Hoxton Pub", "TipoDeServ": "Bar" }, "geometry": { "type": "Point", "coordinates": [ -84.059588, 9.93253 ] } },
{ "type": "Feature", "properties": { "Name": "Congos Grill", "TipoDeServ": "Bar" }, "geometry": { "type": "Point", "coordinates": [ -84.0512, 9.933436 ] } },
{ "type": "Feature", "properties": { "Name": "Erick's", "TipoDeServ": "Bar" }, "geometry": { "type": "Point", "coordinates": [ -84.049889, 9.935289 ] } },
{ "type": "Feature", "properties": { "Name": "Henry's", "TipoDeServ": "Bar" }, "geometry": { "type": "Point", "coordinates": [ -84.057724, 9.931508 ] } },
{ "type": "Feature", "properties": { "Name": "Yokohama", "TipoDeServ": "Restaurante" }, "geometry": { "type": "Point", "coordinates": [ -84.045458, 9.930496 ] } },
{ "type": "Feature", "properties": { "Name": "Ichiban", "TipoDeServ": "Restaurante" }, "geometry": { "type": "Point", "coordinates": [ -84.048527, 9.932054 ] } },
{ "type": "Feature", "properties": { "Name": "Ozaki", "TipoDeServ": "Restaurante" }, "geometry": { "type": "Point", "coordinates": [ -84.04677, 9.930641 ] } },
{ "type": "Feature", "properties": { "Name": "Ave del Paraiso", "TipoDeServ": "Hotel" }, "geometry": { "type": "Point", "coordinates": [ -84.053786, 9.937891 ] } },
{ "type": "Feature", "properties": { "Name": "Tairona", "TipoDeServ": "Hotel" }, "geometry": { "type": "Point", "coordinates": [ -84.056104, 9.935505 ] } },
{ "type": "Feature", "properties": { "Name": "Aurora", "TipoDeServ": "Hotel" }, "geometry": { "type": "Point", "coordinates": [ -84.047776, 9.933237 ] } },
{ "type": "Feature", "properties": { "Name": "Universitario", "TipoDeServ": "Hotel" }, "geometry": { "type": "Point", "coordinates": [ -84.054864, 9.929083 ] } },
{ "type": "Feature", "properties": { "Name": "Milvia", "TipoDeServ": "Hotel" }, "geometry": { "type": "Point", "coordinates": [ -84.04378, 9.93123 ] } },
{ "type": "Feature", "properties": { "Name": "Le Bergerac", "TipoDeServ": "Hotel" }, "geometry": { "type": "Point", "coordinates": [ -84.062588, 9.931027 ] } },
{ "type": "Feature", "properties": { "Name": "Ome", "TipoDeServ": "Restaurante" }, "geometry": { "type": "Point", "coordinates": [ -84.055493, 9.938223 ] } },
{ "type": "Feature", "properties": { "Name": "Tapaboca", "TipoDeServ": "Restaurante" }, "geometry": { "type": "Point", "coordinates": [ -84.055855, 9.936363 ] } },
{ "type": "Feature", "properties": { "Name": "Tic Nic", "TipoDeServ": "Restaurante" }, "geometry": { "type": "Point", "coordinates": [ -84.03491, 9.94493 ] } },
{ "type": "Feature", "properties": { "Name": "Marbella", "TipoDeServ": "Restaurante" }, "geometry": { "type": "Point", "coordinates": [ -84.048827, 9.932742 ] } },
{ "type": "Feature", "properties": { "Name": "Barú", "TipoDeServ": "Restaurante" }, "geometry": { "type": "Point", "coordinates": [ -84.05231, 9.931376 ] } },
{ "type": "Feature", "properties": { "Name": "Kracovia", "TipoDeServ": "Cafe" }, "geometry": { "type": "Point", "coordinates": [ -84.05384, 9.93762 ] } },
{ "type": "Feature", "properties": { "Name": "Tulipan Crepas & Café", "TipoDeServ": "Cafe" }, "geometry": { "type": "Point", "coordinates": [ -84.05537, 9.938612 ] } },
{ "type": "Feature", "properties": { "Name": "Grill House", "TipoDeServ": "Restaurante" }, "geometry": { "type": "Point", "coordinates": [ -84.054208, 9.933199 ] } },
{ "type": "Feature", "properties": { "Name": "Subway", "TipoDeServ": "Cafe" }, "geometry": { "type": "Point", "coordinates": [ -84.058314, 9.932043 ] } },
{ "type": "Feature", "properties": { "Name": "Ruiseñor", "TipoDeServ": "Cafe" }, "geometry": { "type": "Point", "coordinates": [ -84.059592, 9.93257 ] } },
{ "type": "Feature", "properties": { "Name": "EntrePans", "TipoDeServ": "Cafe" }, "geometry": { "type": "Point", "coordinates": [ -84.05512, 9.93601 ] } },
{ "type": "Feature", "properties": { "Name": "Spoon Los Yoses", "TipoDeServ": "Cafe" }, "geometry": { "type": "Point", "coordinates": [ -84.05758, 9.931173 ] } },
{ "type": "Feature", "properties": { "Name": "Kai", "TipoDeServ": "Cafe" }, "geometry": { "type": "Point", "coordinates": [ -84.04429, 9.929901 ] } },
{ "type": "Feature", "properties": { "Name": "Kisu Maid", "TipoDeServ": "Cafe" }, "geometry": { "type": "Point", "coordinates": [ -84.047359, 9.93184 ] } },
{ "type": "Feature", "properties": { "Name": "Desyfin", "TipoDeServ": "Financiera" }, "geometry": { "type": "Point", "coordinates": [ -84.05172, 9.939805 ] } },
{ "type": "Feature", "properties": { "Name": "BAC", "TipoDeServ": "Financiera" }, "geometry": { "type": "Point", "coordinates": [ -84.055561, 9.939444 ] } },
{ "type": "Feature", "properties": { "Name": "Banco Hipotecario de la Vivienda", "TipoDeServ": "Financiera" }, "geometry": { "type": "Point", "coordinates": [ -84.057434, 9.937178 ] } },
{ "type": "Feature", "properties": { "Name": "Bansol", "TipoDeServ": "Financiera" }, "geometry": { "type": "Point", "coordinates": [ -84.055925, 9.934883 ] } },
{ "type": "Feature", "properties": { "Name": "BAC San Jose", "TipoDeServ": "Financiera" }, "geometry": { "type": "Point", "coordinates": [ -84.05693, 9.934435 ] } },
{ "type": "Feature", "properties": { "Name": "CONAPE", "TipoDeServ": "Financiera" }, "geometry": { "type": "Point", "coordinates": [ -84.055148, 9.933265 ] } },
{ "type": "Feature", "properties": { "Name": "Scotiabank", "TipoDeServ": "Financiera" }, "geometry": { "type": "Point", "coordinates": [ -84.049162, 9.931638 ] } },
{ "type": "Feature", "properties": { "Name": "Banco de Costa RicaBanco de Costa Rica", "TipoDeServ": "Financiera" }, "geometry": { "type": "Point", "coordinates": [ -84.04886, 9.932117 ] } },
{ "type": "Feature", "properties": { "Name": "Davivienda", "TipoDeServ": "Financiera" }, "geometry": { "type": "Point", "coordinates": [ -84.04873, 9.932577 ] } },
{ "type": "Feature", "properties": { "Name": "FUNDES", "TipoDeServ": "Financiera" }, "geometry": { "type": "Point", "coordinates": [ -84.046086, 9.939754 ] } },
{ "type": "Feature", "properties": { "Name": "Banco Lafise", "TipoDeServ": "Financiera" }, "geometry": { "type": "Point", "coordinates": [ -84.054653, 9.932387 ] } },
{ "type": "Feature", "properties": { "Name": "Del Este", "TipoDeServ": "Gimnasio" }, "geometry": { "type": "Point", "coordinates": [ -84.04175, 9.943378 ] } },
{ "type": "Feature", "properties": { "Name": "Jivo", "TipoDeServ": "Gimnasio" }, "geometry": { "type": "Point", "coordinates": [ -84.049368, 9.940116 ] } },
{ "type": "Feature", "properties": { "Name": "U Gym", "TipoDeServ": "Gimnasio" }, "geometry": { "type": "Point", "coordinates": [ -84.040574, 9.932964 ] } },
{ "type": "Feature", "properties": { "Name": "Artes Marciales y Pesas", "TipoDeServ": "Gimnasio" }, "geometry": { "type": "Point", "coordinates": [ -84.045434, 9.94307 ] } },
{ "type": "Feature", "properties": { "Name": "Sintética de Cedros", "TipoDeServ": "Cancha" }, "geometry": { "type": "Point", "coordinates": [ -84.027378, 9.940826 ] } },
{ "type": "Feature", "properties": { "Name": "MMA Costa Rica", "TipoDeServ": "Academia" }, "geometry": { "type": "Point", "coordinates": [ -84.049969, 9.933203 ] } },
{ "type": "Feature", "properties": { "Name": "Triton Multi Sport", "TipoDeServ": "Gimnasio" }, "geometry": { "type": "Point", "coordinates": [ -84.047184, 9.938897 ] } },
{ "type": "Feature", "properties": { "Name": "Relson Gracie Academia de Jiu-Jitsu", "TipoDeServ": "Academia" }, "geometry": { "type": "Point", "coordinates": [ -84.050158, 9.932229 ] } },
{ "type": "Feature", "properties": { "Name": "Curves", "TipoDeServ": "Gimnasio" }, "geometry": { "type": "Point", "coordinates": [ -84.049830436706543, 9.941048035841723 ] } }
]
}
