{
"type": "FeatureCollection",
"crs": { "type": "name", "properties": { "name": "urn:ogc:def:crs:OGC:1.3:CRS84" } },
                                                                                
"features": [
{ "type": "Feature", "properties": { "id": 55, "Nomre": "Puente", "cat": 14, "Nombre": "Francisco Peralta", "DISTRITO_2": 1 }, "geometry": { "type": "Point", "coordinates": [ -84.06487807938727, 9.927411290769934 ] } },
{ "type": "Feature", "properties": { "id": 54, "Nomre": "Puente", "cat": 14, "Nombre": "Francisco Peralta", "DISTRITO_2": 1 }, "geometry": { "type": "Point", "coordinates": [ -84.063024243705456, 9.927264697583365 ] } },
{ "type": "Feature", "properties": { "id": 53, "Nomre": "Puente", "cat": 14, "Nombre": "Francisco Peralta", "DISTRITO_2": 1 }, "geometry": { "type": "Point", "coordinates": [ -84.062149128925341, 9.927514896891529 ] } },
{ "type": "Feature", "properties": { "id": 52, "Nomre": "Puente", "cat": 14, "Nombre": "Francisco Peralta", "DISTRITO_2": 1 }, "geometry": { "type": "Point", "coordinates": [ -84.06125747506772, 9.927826808170435 ] } },
{ "type": "Feature", "properties": { "id": 51, "Nomre": "Puente", "cat": 14, "Nombre": "Francisco Peralta", "DISTRITO_2": 1 }, "geometry": { "type": "Point", "coordinates": [ -84.06041376273005, 9.927753511577151 ] } },
{ "type": "Feature", "properties": { "id": 50, "Nomre": "Puente", "cat": 12, "Nombre": "Roosevelt", "DISTRITO_2": 1 }, "geometry": { "type": "Point", "coordinates": [ -84.055282636450073, 9.926731803610476 ] } },
{ "type": "Feature", "properties": { "id": 49, "Nomre": "Puente", "cat": 11, "Nombre": "Oriente", "DISTRITO_2": 1 }, "geometry": { "type": "Point", "coordinates": [ -84.054567885307321, 9.926355411734104 ] } },
{ "type": "Feature", "properties": { "id": 48, "Nomre": "Puente", "cat": 11, "Nombre": "Oriente", "DISTRITO_2": 1 }, "geometry": { "type": "Point", "coordinates": [ -84.053688908986373, 9.926022006922707 ] } },
{ "type": "Feature", "properties": { "id": 47, "Nomre": "Puente", "cat": 16, "Nombre": "San Gerardo (Parte)", "DISTRITO_2": 1 }, "geometry": { "type": "Point", "coordinates": [ -84.052065964908493, 9.925627983054694 ] } },
{ "type": "Feature", "properties": { "id": 46, "Nomre": "Puente", "cat": 16, "Nombre": "San Gerardo (Parte)", "DISTRITO_2": 1 }, "geometry": { "type": "Point", "coordinates": [ -84.051541886931432, 9.922891309511089 ] } },
{ "type": "Feature", "properties": { "id": 45, "Nomre": "Puente", "cat": 16, "Nombre": "San Gerardo (Parte)", "DISTRITO_2": 1 }, "geometry": { "type": "Point", "coordinates": [ -84.05023362275918, 9.922778887393674 ] } },
{ "type": "Feature", "properties": { "id": 44, "Nomre": "Puente", "cat": 16, "Nombre": "San Gerardo (Parte)", "DISTRITO_2": 1 }, "geometry": { "type": "Point", "coordinates": [ -84.051091105547641, 9.922635062833825 ] } },
{ "type": "Feature", "properties": { "id": 43, "Nomre": "Puente", "cat": 10, "Nombre": "Fuentes", "DISTRITO_2": 1 }, "geometry": { "type": "Point", "coordinates": [ -84.043487275483002, 9.92989667209125 ] } },
{ "type": "Feature", "properties": { "id": 42, "Nomre": "Puente", "cat": 15, "Nombre": "Dent (Parte)", "DISTRITO_2": 1 }, "geometry": { "type": "Point", "coordinates": [ -84.054416337665771, 9.93726684192524 ] } },
{ "type": "Feature", "properties": { "id": 41, "Nomre": "Puente", "cat": 15, "Nombre": "Dent (Parte)", "DISTRITO_2": 1 }, "geometry": { "type": "Point", "coordinates": [ -84.054113242382684, 9.937054675227079 ] } },
{ "type": "Feature", "properties": { "id": 40, "Nomre": "Puente", "cat": 9, "Nombre": "Saprissa", "DISTRITO_2": 1 }, "geometry": { "type": "Point", "coordinates": [ -84.047657312852934, 9.937145603812006 ] } },
{ "type": "Feature", "properties": { "id": 39, "Nomre": "Puente", "cat": 9, "Nombre": "Saprissa", "DISTRITO_2": 1 }, "geometry": { "type": "Point", "coordinates": [ -84.047899789079395, 9.937145603812006 ] } },
{ "type": "Feature", "properties": { "id": 38, "Nomre": "Puente", "cat": 22, "Nombre": "San Pedro", "DISTRITO_2": 1 }, "geometry": { "type": "Point", "coordinates": [ -84.052719004080487, 9.93702436569877 ] } },
{ "type": "Feature", "properties": { "id": 37, "Nomre": "Puente", "cat": 22, "Nombre": "San Pedro", "DISTRITO_2": 1 }, "geometry": { "type": "Point", "coordinates": [ -84.052506837382325, 9.937175913340315 ] } },
{ "type": "Feature", "properties": { "id": 36, "Nomre": "Puente", "cat": 9, "Nombre": "Saprissa", "DISTRITO_2": 1 }, "geometry": { "type": "Point", "coordinates": [ -84.047202669928296, 9.937145603812006 ] } },
{ "type": "Feature", "properties": { "id": 35, "Nomre": "Puente", "cat": 7, "Nombre": "Monterrey", "DISTRITO_2": 1 }, "geometry": { "type": "Point", "coordinates": [ -84.041474169077958, 9.939055104095454 ] } },
{ "type": "Feature", "properties": { "id": 34, "Nomre": "Puente", "cat": 17, "Nombre": "Santa Marta", "DISTRITO_2": 1 }, "geometry": { "type": "Point", "coordinates": [ -84.034957620491582, 9.931295864848423 ] } },
{ "type": "Feature", "properties": { "id": 33, "Nomre": "Puente", "cat": 2, "Nombre": "Kezia", "DISTRITO_2": 1 }, "geometry": { "type": "Point", "coordinates": [ -84.037746097096004, 9.939964389944715 ] } },
{ "type": "Feature", "properties": { "id": 32, "Nomre": "Puente", "cat": 21, "Nombre": "Prados del Este", "DISTRITO_2": 1 }, "geometry": { "type": "Point", "coordinates": [ -84.033078429736463, 9.937266841925238 ] } },
{ "type": "Feature", "properties": { "id": 31, "Nomre": "Puente", "cat": 8, "Nombre": "Cedral", "DISTRITO_2": 1 }, "geometry": { "type": "Point", "coordinates": [ -84.030168715018817, 9.937903342019721 ] } },
{ "type": "Feature", "properties": { "id": 30, "Nomre": "Puente", "cat": 41, "Nombre": "Liburgia", "DISTRITO_2": 4 }, "geometry": { "type": "Point", "coordinates": [ -83.98200687453631, 9.947465998201118 ] } },
{ "type": "Feature", "properties": { "id": 29, "Nomre": "Puente", "cat": 41, "Nombre": "Liburgia", "DISTRITO_2": 4 }, "geometry": { "type": "Point", "coordinates": [ -83.982703993687409, 9.947375069616191 ] } },
{ "type": "Feature", "properties": { "id": 28, "Nomre": "Puente", "cat": 41, "Nombre": "Liburgia", "DISTRITO_2": 4 }, "geometry": { "type": "Point", "coordinates": [ -83.985401541706878, 9.943283283294516 ] } },
{ "type": "Feature", "properties": { "id": 27, "Nomre": "Puente", "cat": 39, "Nombre": "Cuesta Grande", "DISTRITO_2": 4 }, "geometry": { "type": "Point", "coordinates": [ -84.000920020200951, 9.949102712729788 ] } },
{ "type": "Feature", "properties": { "id": 26, "Nomre": "Puente", "cat": 40, "Nombre": "Salitrillos", "DISTRITO_2": 4 }, "geometry": { "type": "Point", "coordinates": [ -84.002950758597635, 9.949466427069492 ] } },
{ "type": "Feature", "properties": { "id": 25, "Nomre": "Puente", "cat": 40, "Nombre": "Salitrillos", "DISTRITO_2": 4 }, "geometry": { "type": "Point", "coordinates": [ -84.003981282560133, 9.948557141220231 ] } },
{ "type": "Feature", "properties": { "id": 24, "Nomre": "Puente", "cat": 40, "Nombre": "Salitrillos", "DISTRITO_2": 4 }, "geometry": { "type": "Point", "coordinates": [ -84.00428437784322, 9.948375284050378 ] } },
{ "type": "Feature", "properties": { "id": 23, "Nomre": "Puente", "cat": 40, "Nombre": "Salitrillos", "DISTRITO_2": 4 }, "geometry": { "type": "Point", "coordinates": [ -84.004405615956458, 9.948284355465452 ] } },
{ "type": "Feature", "properties": { "id": 22, "Nomre": "Puente", "cat": 43, "Nombre": "Mansiones", "DISTRITO_2": 4 }, "geometry": { "type": "Point", "coordinates": [ -83.996312971898021, 9.943950092917307 ] } },
{ "type": "Feature", "properties": { "id": 21, "Nomre": "Puente", "cat": 43, "Nombre": "Mansiones", "DISTRITO_2": 4 }, "geometry": { "type": "Point", "coordinates": [ -84.000041043880003, 9.94410164055885 ] } },
{ "type": "Feature", "properties": { "id": 20, "Nomre": "Puente", "cat": 40, "Nombre": "Salitrillos", "DISTRITO_2": 4 }, "geometry": { "type": "Point", "coordinates": [ -84.006193878126666, 9.945071545464728 ] } },
{ "type": "Feature", "properties": { "id": 19, "Nomre": "Puente", "cat": 40, "Nombre": "Salitrillos", "DISTRITO_2": 4 }, "geometry": { "type": "Point", "coordinates": [ -84.006436354353141, 9.944889688294877 ] } },
{ "type": "Feature", "properties": { "id": 18, "Nomre": "Puente", "cat": 40, "Nombre": "Salitrillos", "DISTRITO_2": 4 }, "geometry": { "type": "Point", "coordinates": [ -84.006830378221153, 9.945435259804434 ] } },
{ "type": "Feature", "properties": { "id": 17, "Nomre": "Puente", "cat": 40, "Nombre": "Salitrillos", "DISTRITO_2": 4 }, "geometry": { "type": "Point", "coordinates": [ -84.008406473693199, 9.946920426691561 ] } },
{ "type": "Feature", "properties": { "id": 16, "Nomre": "Puente", "cat": 40, "Nombre": "Salitrillos", "DISTRITO_2": 4 }, "geometry": { "type": "Point", "coordinates": [ -84.008982354731074, 9.946435474238621 ] } },
{ "type": "Feature", "properties": { "id": 15, "Nomre": "Puente", "cat": 38, "Nombre": "Estefana", "DISTRITO_2": 4 }, "geometry": { "type": "Point", "coordinates": [ -84.013468164920766, 9.944556283483481 ] } },
{ "type": "Feature", "properties": { "id": 14, "Nomre": "Puente", "cat": 36, "Nombre": "San Rafael", "DISTRITO_2": 4 }, "geometry": { "type": "Point", "coordinates": [ -84.019317903884357, 9.944738140653334 ] } },
{ "type": "Feature", "properties": { "id": 13, "Nomre": "Puente", "cat": 42, "Nombre": "El Cristo (Parte)", "DISTRITO_2": 4 }, "geometry": { "type": "Point", "coordinates": [ -84.019742237280681, 9.945162474049656 ] } },
{ "type": "Feature", "properties": { "id": 12, "Nomre": "Puente", "cat": 28, "Nombre": "La Arboleda", "DISTRITO_2": 2 }, "geometry": { "type": "Point", "coordinates": [ -84.031714500962607, 9.941616259237536 ] } },
{ "type": "Feature", "properties": { "id": 11, "Nomre": "Puente", "cat": 4, "Nombre": "Nadori", "DISTRITO_2": 1 }, "geometry": { "type": "Point", "coordinates": [ -84.035503192001201, 9.941313163954449 ] } },
{ "type": "Feature", "properties": { "id": 10, "Nomre": "Puente", "cat": 27, "Nombre": "San Marino", "DISTRITO_2": 2 }, "geometry": { "type": "Point", "coordinates": [ -84.034624215680239, 9.941343473482759 ] } },
{ "type": "Feature", "properties": { "id": 9, "Nomre": "Puente", "cat": 27, "Nombre": "San Marino", "DISTRITO_2": 2 }, "geometry": { "type": "Point", "coordinates": [ -84.034139263227303, 9.941282854426142 ] } },
{ "type": "Feature", "properties": { "id": 8, "Nomre": "Puente", "cat": 27, "Nombre": "San Marino", "DISTRITO_2": 2 }, "geometry": { "type": "Point", "coordinates": [ -84.033593691717755, 9.941131306784596 ] } },
{ "type": "Feature", "properties": { "id": 7, "Nomre": "Puente", "cat": 27, "Nombre": "San Marino", "DISTRITO_2": 2 }, "geometry": { "type": "Point", "coordinates": [ -84.033108739264804, 9.941040378199672 ] } },
{ "type": "Feature", "properties": { "id": 6, "Nomre": "Puente", "cat": 42, "Nombre": "El Cristo (Parte)", "DISTRITO_2": 4 }, "geometry": { "type": "Point", "coordinates": [ -84.023967939252231, 9.945755987079163 ] } },
{ "type": "Feature", "properties": { "id": 5, "Nomre": "Puente", "cat": 30, "Nombre": "Luciana", "DISTRITO_2": 2 }, "geometry": { "type": "Point", "coordinates": [ -84.030805215113347, 9.947071974333104 ] } },
{ "type": "Feature", "properties": { "id": 4, "Nomre": "Puente", "cat": 50, "Nombre": "Paso Hondo", "DISTRITO_2": 3 }, "geometry": { "type": "Point", "coordinates": [ -84.043989859927635, 9.949889376152454 ] } },
{ "type": "Feature", "properties": { "id": 3, "Nomre": null, "cat": 50, "Nombre": "Paso Hondo", "DISTRITO_2": 3 }, "geometry": { "type": "Point", "coordinates": [ -84.046323693607405, 9.948269200701299 ] } },
{ "type": "Feature", "properties": { "id": 2, "Nomre": null, "cat": 51, "Nombre": "Guaymí", "DISTRITO_2": 3 }, "geometry": { "type": "Point", "coordinates": [ -84.051324765778347, 9.942798330841574 ] } },
{ "type": "Feature", "properties": { "id": 1, "Nomre": "Puente", "cat": 47, "Nombre": "Betania", "DISTRITO_2": 3 }, "geometry": { "type": "Point", "coordinates": [ -84.053749528043042, 9.942131521218784 ] } },
{ "type": "Feature", "properties": { "id": 0, "Nomre": "Puente", "cat": 52, "Nombre": "Dent (Parte)", "DISTRITO_2": 3 }, "geometry": { "type": "Point", "coordinates": [ -84.056780480873911, 9.941646568765844 ] } }
]
}
